{
    "10": {
        "corredor": "Independencia",
        "nombreSegmento": "Paseo Colón - 9 de julio",
        "sentido": "",
        "latlng":"-34.618467,-58.397579",
        "anomalia": "",
        "tiempo": "",
        "demora": "",
        "corte": "",
        "causa": "",
        "descripcion":""


    },
    "11": {
        "corredor": "Illia",
        "nombreSegmento": "General Paz - Sarmiento",
        "sentido": "",
        "latlng":"-34.576031,-58.392278",
        "anomalia": "",
        "tiempo": "",
        "demora": "",
        "corte": "",
        "causa": "",
        "descripcion":""


    },
    "56": {
        "corredor": "Illia",
        "nombreSegmento": "Sarmiento - 9 de julio",
        "sentido": "",
        "latlng":"-34.576031,-58.392278",
        "anomalia": "",
        "tiempo": "",
        "demora": "",
        "corte": "",
        "causa": "",
        "descripcion":""


    },
    "12": {
        "corredor": "Illia",
        "nombreSegmento": "General Paz - Sarmiento",
        "sentido": "",
        "latlng":"-34.576031,-58.392278",
        "anomalia": "",
        "tiempo": "",
        "demora": "",
        "corte": "",
        "causa": "",
        "descripcion":""


    },
    "57": {
        "corredor": "Illia",
        "nombreSegmento": "Sarmiento - 9 de julio",
        "sentido": "",
        "latlng":"-34.576031,-58.392278",
        "anomalia": "",
        "tiempo": "",
        "demora": "",
        "corte": "",
        "causa": "",
        "descripcion":""


    },
    "13": {
        "corredor": "9 de julio",
        "nombreSegmento": "San Juan - Corrientes",
        "sentido": "",
        "latlng":"-34.606980,-58.381180",
        "anomalia": "",
        "tiempo": "",
        "demora": "",
        "corte": "",
        "causa": "",
        "descripcion":""


    },
    "17": {
        "corredor": "9 de julio",
        "nombreSegmento": "Corrientes - Arroyo",
        "sentido": "",
        "latlng":"-34.606980,-58.381180",
        "anomalia": "",
        "tiempo": "",
        "demora": "",
        "corte": "",
        "causa": "",
        "descripcion":""


    },
    "15": {
        "corredor": "9 de julio",
        "nombreSegmento": "Arroyo - Corrientes",
        "sentido": "",
        "latlng":"-34.606980,-58.381180",
        "anomalia": "",
        "tiempo": "",
        "demora": "",
        "corte": "",
        "causa": "",
        "descripcion":""


    },
    "19": {
        "corredor": "9 de julio",
        "nombreSegmento": "Corrientes - San Juan",
        "sentido": "",
        "latlng":"-34.606980,-58.381180",
        "anomalia": "",
        "tiempo": "",
        "demora": "",
        "corte": "",
        "causa": "",
        "descripcion":""


    },
    "14": {
        "corredor": "Pellegrini",
        "nombreSegmento": "Pellegrini",
        "sentido": "",
        "latlng":"-34.596815,-58.381395",
        "anomalia": "",
        "tiempo": "",
        "demora": "",
        "corte": "",
        "causa": "",
        "descripcion":""


    },
    "18": {
        "corredor": "Pellegrini",
        "nombreSegmento": "Pellegrini",
        "sentido": "",
        "latlng":"-34.596815,-58.381395",
        "anomalia": "",
        "tiempo": "",
        "demora": "",
        "corte": "",
        "causa": "",
        "descripcion":""


    },
    "16": {
        "corredor": "Cerrito",
        "nombreSegmento": "Arroyo - Corrientes",
        "sentido": "",
        "latlng":"-34.598979,-58.382575",
        "anomalia": "",
        "tiempo": "",
        "demora": "",
        "corte": "",
        "causa": "",
        "descripcion":""

    },
    "20": {
        "corredor": "Cerrito",
        "nombreSegmento": "Corrientes - San Juan",
        "sentido": "",
        "latlng":"-34.598979,-58.382575",
        "anomalia": "",
        "tiempo": "",
        "demora": "",
        "corte": "",
        "causa": "",
        "descripcion":""


    },
    "21": {
        "corredor": "Alem",
        "nombreSegmento": "Rojas - Casa Rosada",
        "sentido": "",
        "latlng":"-34.602024,-58.370417",
        "anomalia": "",
        "tiempo": "",
        "demora": "",
        "corte": "",
        "causa": "",
        "descripcion":""


    },
    "22": {
        "corredor": "Alem",
        "nombreSegmento": "Rojas - Casa Rosada",
        "sentido": "",
        "latlng":"-34.602024,-58.370417",
        "anomalia": "",
        "tiempo": "",
        "demora": "",
        "corte": "",
        "causa": "",
        "descripcion":""


    },
    "23": {
        "corredor": "Corrientes",
        "nombreSegmento": "Medrano - Obelisco",
        "sentido": "",
        "latlng":"-34.604056,-58.411052",
        "anomalia": "",
        "tiempo": "",
        "demora": "",
        "corte": "",
        "causa": "",
        "descripcion":""


    },
    "24": {
        "corredor": "Rivadavia",
        "nombreSegmento": "Pueyrredón - Montevideo",
        "sentido": "",
        "latlng":"-34.623828,-58.449860",
        "anomalia": "",
        "tiempo": "",
        "demora": "",
        "corte": "",
        "causa": "",
        "descripcion":""


    },
    "25": {
        "corredor": "Av. de mayo",
        "nombreSegmento": "Plaza de mayo - Montevideo",
        "sentido": "",
        "latlng":"-34.608998,-58.381230",
        "anomalia": "",
        "tiempo": "",
        "demora": "",
        "corte": "",
        "causa": "",
        "descripcion":""


    },
    "26": {
        "corredor": "San Martín",
        "nombreSegmento": "General Paz - Beiró",
        "sentido": "",
        "latlng":"-34.598273,-58.482107",
        "anomalia": "",
        "tiempo": "",
        "demora": "",
        "corte": "",
        "causa": "",
        "descripcion":""


    },
    "28": {
        "corredor": "San Martín",
        "nombreSegmento": "Beiró - Juan B. Justo",
        "sentido": "",
        "latlng":"-34.598273,-58.482107",
        "anomalia": "",
        "tiempo": "",
        "demora": "",
        "corte": "",
        "causa": "",
        "descripcion":""


    },
    "27": {
        "corredor": "San Martín",
        "nombreSegmento": "General Paz - Beiró",
        "sentido": "",
        "latlng":"-34.598273,-58.482107",
        "anomalia": "",
        "tiempo": "",
        "demora": "",
        "corte": "",
        "causa": "",
        "descripcion":""


    },
    "29": {
        "corredor": "San Martín",
        "nombreSegmento": "Beiró - Juan B. Justo",
        "sentido": "",
        "latlng":"-34.598273,-58.482107",
        "anomalia": "",
        "tiempo": "",
        "demora": "",
        "corte": "",
        "causa": "",
        "descripcion":""


    },
    "31": {
        "corredor": "Juan B. Justo",
        "nombreSegmento": "Santa Fé - Corrientes",
        "sentido": "",
        "latlng":"-34.613392,-58.472011",
        "anomalia": "",
        "tiempo": "",
        "demora": "",
        "corte": "",
        "causa": "",
        "descripcion":""


    },
    "32": {
        "corredor": "Juan B. Justo",
        "nombreSegmento": "Corrientes - Nazca",
        "sentido": "",
        "latlng":"-34.613392,-58.472011",
        "anomalia": "",
        "tiempo": "",
        "demora": "",
        "corte": "",
        "causa": "",
        "descripcion":""


    },
    "35": {
        "corredor": "Juan B. Justo",
        "nombreSegmento": "Nazca - General Paz",
        "sentido": "",
        "latlng":"-34.613392,-58.472011",
        "anomalia": "",
        "tiempo": "",
        "demora": "",
        "corte": "",
        "causa": "",
        "descripcion":""


    },
    "30": {
        "corredor": "Juan B. Justo",
        "nombreSegmento": "Santa Fé - Corrientes",
        "sentido": "",
        "latlng":"-34.613392,-58.472011",
        "anomalia": "",
        "tiempo": "",
        "demora": "",
        "corte": "",
        "causa": "",
        "descripcion":""


    },
    "33": {
        "corredor": "Juan B. Justo",
        "nombreSegmento": "Corrientes - Nazca",
        "sentido": "",
        "latlng":"-34.613392,-58.472011",
        "anomalia": "",
        "tiempo": "",
        "demora": "",
        "corte": "",
        "causa": "",
        "descripcion":""


    },
    "34": {
        "corredor": "Juan B. Justo",
        "nombreSegmento": "Nazca - General Paz",
        "sentido": "",
        "latlng":"-34.613392,-58.472011",
        "anomalia": "",
        "tiempo": "",
        "demora": "",
        "corte": "",
        "causa": "",
        "descripcion":""


    },
    "36": {
        "corredor": "Córdoba",
        "nombreSegmento": "9 de julio - Estado de Israel",
        "sentido": "",
        "latlng":"-34.598003,-58.411965",
        "anomalia": "",
        "tiempo": "",
        "demora": "",
        "corte": "",
        "causa": "",
        "descripcion":""


    },
    "37": {
        "corredor": "Córdoba",
        "nombreSegmento": "Estado de Israel - Dorrego",
        "sentido": "",
        "latlng":"-34.598003,-58.411965",
        "anomalia": "",
        "tiempo": "",
        "demora": "",
        "corte": "",
        "causa": "",
        "descripcion":""


    },
    "38": {
        "corredor": "Paseo Colón",
        "nombreSegmento": "San Juan - Casa Rosada",
        "sentido": "",
        "latlng":"-34.616437,-58.369178",
        "anomalia": "",
        "tiempo": "",
        "demora": "",
        "corte": "",
        "causa": "",
        "descripcion":""


    },
    "39": {
        "corredor": "Paseo Colón",
        "nombreSegmento": "San Juan - Casa Rosada",
        "sentido": "",
        "latlng":"-34.616437,-58.369178",
        "anomalia": "",
        "tiempo": "",
        "demora": "",
        "corte": "",
        "causa": "",
        "descripcion":""


    },
    "41": {
        "corredor": "Cabildo",
        "nombreSegmento": "General Paz - Congreso",
        "sentido": "",
        "latlng":"-34.559119,-58.459131",
        "anomalia": "",
        "tiempo": "",
        "demora": "",
        "corte": "",
        "causa": "",
        "descripcion":""


    },
    "43": {
        "corredor": "Cabildo",
        "nombreSegmento": "Congreso - Lacroze",
        "sentido": "",
        "latlng":"-34.559119,-58.459131",
        "anomalia": "",
        "tiempo": "",
        "demora": "",
        "corte": "",
        "causa": "",
        "descripcion":""


    },
    "44": {
        "corredor": "Cabildo",
        "nombreSegmento": "Lacroze - Juan B. Justo",
        "sentido": "",
        "latlng":"-34.559119,-58.459131",
        "anomalia": "",
        "tiempo": "",
        "demora": "",
        "corte": "",
        "causa": "",
        "descripcion":""


    },
    "40": {
        "corredor": "Cabildo",
        "nombreSegmento": "General Paz - Congreso",
        "sentido": "",
        "latlng":"-34.559119,-58.459131",
        "anomalia": "",
        "tiempo": "",
        "demora": "",
        "corte": "",
        "causa": "",
        "descripcion":""


    },
    "42": {
        "corredor": "Cabildo",
        "nombreSegmento": "Congreso - Lacroze",
        "sentido": "",
        "latlng":"-34.559119,-58.459131",
        "anomalia": "",
        "tiempo": "",
        "demora": "",
        "corte": "",
        "causa": "",
        "descripcion":""


    },
    "45": {
        "corredor": "Cabildo",
        "nombreSegmento": "Lacroze - Juan B. Justo",
        "sentido": "",
        "latlng":"-34.559119,-58.459131",
        "anomalia": "",
        "tiempo": "",
        "demora": "",
        "corte": "",
        "causa": "",
        "descripcion":""


    },
    "46": {
        "corredor": "Pueyrredón",
        "nombreSegmento": "Mitre - Córdoba",
        "sentido": "",
        "latlng":"-34.595818,-58.402866",
        "anomalia": "",
        "tiempo": "",
        "demora": "",
        "corte": "",
        "causa": "",
        "descripcion":""


    },
    "47": {
        "corredor": "Pueyrredón",
        "nombreSegmento": "Mitre - Córdoba",
        "sentido": "",
        "latlng":"-34.595818,-58.402866",
        "anomalia": "",
        "tiempo": "",
        "demora": "",
        "corte": "",
        "causa": "",
        "descripcion":""


    },
    "49": {
        "corredor": "Libertador",
        "nombreSegmento": "Cerrito - Sarmiento",
        "sentido": "",
        "latlng":"-34.581446,-58.403382",
        "anomalia": "",
        "tiempo": "",
        "demora": "",
        "corte": "",
        "causa": "",
        "descripcion":""


    },
    "51": {
        "corredor": "Libertador",
        "nombreSegmento": "Sarmiento - La Pampa",
        "sentido": "",
        "latlng":"-34.581446,-58.403382",
        "anomalia": "",
        "tiempo": "",
        "demora": "",
        "corte": "",
        "causa": "",
        "descripcion":""


    },
    "53": {
        "corredor": "Libertador",
        "nombreSegmento": "La Pampa - General Paz",
        "sentido": "",
        "latlng":"-34.581446,-58.403382",
        "anomalia": "",
        "tiempo": "",
        "demora": "",
        "corte": "",
        "causa": "",
        "descripcion":""


    },
    "48": {
        "corredor": "Libertador",
        "nombreSegmento": "Cerrito - Sarmiento",
        "sentido": "",
        "latlng":"-34.581446,-58.403382",
        "anomalia": "",
        "tiempo": "",
        "demora": "",
        "corte": "",
        "causa": "",
        "descripcion":""


    },
    "50": {
        "corredor": "Libertador",
        "nombreSegmento": "Sarmiento - La Pampa",
        "sentido": "",
        "latlng":"-34.581446,-58.403382",
        "anomalia": "",
        "tiempo": "",
        "demora": "",
        "corte": "",
        "causa": "",
        "descripcion":""


    },
    "52": {
        "corredor": "Libertador",
        "nombreSegmento": "La Pampa - General Paz",
        "sentido": "",
        "latlng":"-34.581446,-58.403382",
        "anomalia": "",
        "tiempo": "",
        "demora": "",
        "corte": "",
        "causa": "",
        "descripcion":""


    },
    "54": {
        "corredor": "Alcorta",
        "nombreSegmento": "Cerrito - Sarmiento",
        "sentido": "",
        "latlng":"-34.564588,-58.421132",
        "anomalia": "",
        "tiempo": "",
        "demora": "",
        "corte": "",
        "causa": "",
        "descripcion":""


    },
    "55": {
        "corredor": "Alcorta",
        "nombreSegmento": "Sarmiento - Udaondo",
        "sentido": "",
        "latlng":"-34.564588,-58.421132",
        "anomalia": "",
        "tiempo": "",
        "demora": "",
        "corte": "",
        "causa": "",
        "descripcion":""


    }
}
